%time,field.header.seq,field.header.stamp,field.header.frame_id,field.pose.position.x,field.pose.position.y,field.pose.position.z,field.pose.orientation.x,field.pose.orientation.y,field.pose.orientation.z,field.pose.orientation.w
1403638147895097000,0,1403638147895097000,cam0,-0.0706339762021,-0.0587196228557,0.0229057885577,-0.595049594652,-0.574734752066,0.38659374498,0.407604245579
1403638147945097000,1,1403638147945097000,cam0,0.0286072045055,0.41965651356,-0.0545589757582,-0.640943211532,-0.520187088754,0.342313271538,0.4487970771
1403638147995097000,2,1403638147995097000,cam0,0.0472038228938,0.42434380221,-0.0422726467602,-0.639899952458,-0.517394039143,0.344571055146,0.451776766842
1403638148045097000,3,1403638148045097000,cam0,0.0579709078557,0.409808567594,-0.040354595524,-0.637667980997,-0.515457309905,0.345972083186,0.456055506854
1403638148095097000,4,1403638148095097000,cam0,-0.0502621372753,0.410034200896,-0.039910682676,-0.635773594345,-0.513300320426,0.350968201697,0.457313939413
1403638148145097000,5,1403638148145097000,cam0,-2.27013186809,-0.646373144632,0.540226670282,-0.632798843452,-0.513408056168,0.34792694212,0.463599648979
1403638148195097000,6,1403638148195097000,cam0,-0.857342970975,0.466704337097,0.0299983858737,-0.631800830026,-0.51449046692,0.352522323118,0.460277397153
1403638148245097000,7,1403638148245097000,cam0,-0.282323145752,0.7416983668,0.0409826534712,-0.629825530439,-0.516128464708,0.354905335085,0.459318421416
1403638148295097000,8,1403638148295097000,cam0,0.0257787294245,0.403643183361,0.0415171317007,-0.629069882882,-0.516320126677,0.355218982464,0.459895731373
1403638148345097000,9,1403638148345097000,cam0,0.055254329688,0.4016899438,0.0479651096327,-0.627417442691,-0.517008234945,0.356702647647,0.46023152735
1403638148395097000,10,1403638148395097000,cam0,0.0638635897601,0.404444621208,0.0771972481342,-0.626726640661,-0.518519137497,0.356794444904,0.459401073158
1403638148445097000,11,1403638148445097000,cam0,-0.065201372921,0.406675386515,0.100427000409,-0.626859843051,-0.519652948603,0.356261375883,0.45835071968
1403638148495097000,12,1403638148495097000,cam0,0.00747370392638,0.404441004604,0.120767026563,-0.62765572456,-0.523571395532,0.353036091243,0.455287605243
1403638148545097000,13,1403638148545097000,cam0,0.0299275371594,0.414334481478,0.156197842178,-0.628350567685,-0.527180753034,0.348869650202,0.453371795426
1403638148595097000,14,1403638148595097000,cam0,0.0295281621539,0.393769084501,0.139313935903,-0.628940700977,-0.529017849838,0.347306061524,0.451610682817
1403638148645097000,15,1403638148645097000,cam0,0.0272412597437,0.391611933841,0.136511724178,-0.629582190978,-0.531452680736,0.345284282877,0.449403022842
1403638148695097000,16,1403638148695097000,cam0,0.0293463183218,0.404253348594,0.133255199709,-0.629888955353,-0.53285130067,0.345478726648,0.447161989363
1403638148745097000,17,1403638148745097000,cam0,0.0221715926163,0.402659697293,0.128520424382,-0.630488058272,-0.534296296145,0.34499966468,0.444957871795
1403638148795097000,18,1403638148795097000,cam0,0.0139496892596,0.407926250657,0.125073310978,-0.63090895728,-0.535423190462,0.344766730923,0.44318370456
1403638148845097000,19,1403638148845097000,cam0,0.0082494036286,0.407171617727,0.12788434194,-0.630795227373,-0.536253323902,0.345269099249,0.441949095293
1403638148895097000,20,1403638148895097000,cam0,-0.00480099155696,0.402155176895,0.131420974012,-0.630515776522,-0.536992333713,0.345204158998,0.441501050621
1403638148945097000,21,1403638148945097000,cam0,-0.0107130985995,0.400060480446,0.138443660936,-0.62968213652,-0.536804601152,0.346489156724,0.441912311893
1403638148995097000,22,1403638148995097000,cam0,-0.0255747772271,0.402309446512,0.147685736271,-0.628384091142,-0.536677800982,0.348087910369,0.44265695362
1403638149045097000,23,1403638149045097000,cam0,-0.036078456429,0.39796042301,0.16011882509,-0.626463842666,-0.535812499702,0.350396273611,0.444601473719
1403638149095097000,24,1403638149095097000,cam0,-0.0480884941912,0.394281266786,0.175165037839,-0.624683804307,-0.535194325255,0.352138522626,0.446470200275
1403638149195097000,25,1403638149195097000,cam0,-0.0646162363227,0.311850314467,0.29266632835,-0.626998483971,-0.531380971307,0.349172431589,0.450095298186
1403638149245097000,26,1403638149245097000,cam0,-0.0889524056979,0.381580568739,0.226188894295,-0.621573301106,-0.533108629144,0.355870437796,0.45033104755
1403638149295097000,27,1403638149295097000,cam0,-0.106332012801,0.374365026395,0.238085455765,-0.621762282219,-0.531991688185,0.357446889536,0.450142454422
1403638149345097000,28,1403638149345097000,cam0,-0.124272884089,0.373008246532,0.251302293436,-0.621425024839,-0.531284991722,0.358712822075,0.450435686145
1403638149395097000,29,1403638149395097000,cam0,-0.156216870451,0.352628224907,0.253924181699,-0.620669030704,-0.530882404627,0.358455530512,0.452154242961
1403638149445097000,30,1403638149445097000,cam0,-0.165491951845,0.348637457042,0.250781325494,-0.620192503557,-0.530245950899,0.359491206207,0.45273233013
1403638149495097000,31,1403638149495097000,cam0,-0.187087499483,0.345282166052,0.261397865838,-0.619353743399,-0.530489366224,0.359223460022,0.453806653356
1403638149545097000,32,1403638149545097000,cam0,-0.199235142604,0.339867829453,0.272728585598,-0.618886504274,-0.530687151876,0.359020889995,0.454372800911
1403638149595097000,33,1403638149595097000,cam0,-0.215466438806,0.33497673186,0.287963143165,-0.618212567484,-0.531442073095,0.358764403412,0.45461043454
1403638149645097000,34,1403638149645097000,cam0,-0.237301468692,0.331944319921,0.298413338176,-0.617066850277,-0.532875890207,0.359511978146,0.453897483464
1403638149695097000,35,1403638149695097000,cam0,-0.250844512959,0.327833934302,0.305044861929,-0.615170384107,-0.534806728191,0.361290190625,0.452787544171
1403638149745097000,36,1403638149745097000,cam0,-0.256943717655,0.323728037061,0.317055032239,-0.613146589393,-0.537081903547,0.362491815262,0.451878271956
1403638149795097000,37,1403638149795097000,cam0,-0.270631952184,0.319184639741,0.316367521848,-0.61154300698,-0.538805858039,0.364194634483,0.450628079651
1403638149845097000,38,1403638149845097000,cam0,-0.279161446949,0.318804819722,0.318696524548,-0.610001701963,-0.540903520753,0.365208567829,0.449381805175
1403638149895097000,39,1403638149895097000,cam0,-0.286083424085,0.314323385161,0.316639699537,-0.608959561582,-0.541649646371,0.366805881579,0.448594870883
1403638149945097000,40,1403638149945097000,cam0,-0.286844424262,0.313693874883,0.314708117025,-0.60807919655,-0.543237710094,0.367187168828,0.447555654754
1403638149995097000,41,1403638149995097000,cam0,-0.293964496461,0.311101547242,0.314461896167,-0.606972508489,-0.54482978345,0.36707742584,0.447212527152
1403638150045097000,42,1403638150045097000,cam0,-0.296694700101,0.307636540256,0.310036335306,-0.604813709518,-0.547003913736,0.365205039528,0.449012666012
1403638150095097000,43,1403638150095097000,cam0,-0.306522708951,0.303030956199,0.300145587104,-0.602577407077,-0.549313828079,0.363081732809,0.450917333955
1403638150145097000,44,1403638150145097000,cam0,-0.312330717523,0.29867524355,0.298004487142,-0.60025060094,-0.552330951478,0.359958897146,0.452834769508
1403638150195097000,45,1403638150195097000,cam0,-0.327106788755,0.29153842376,0.297250472349,-0.598241090489,-0.554491474102,0.357592903737,0.454724221912
1403638150245097000,46,1403638150245097000,cam0,-0.339856527453,0.284883850396,0.293612518442,-0.596165502426,-0.556222038628,0.355465898237,0.456998613401
1403638150295097000,47,1403638150295097000,cam0,-0.343977449913,0.27852002702,0.288154093068,-0.597111454631,-0.55736689929,0.354370553106,0.455215950308
1403638150345097000,48,1403638150345097000,cam0,-0.357172458645,0.26779655093,0.271537070528,-0.598173791073,-0.558416337218,0.353076093718,0.453537850731
1403638150395097000,49,1403638150395097000,cam0,-0.366313031008,0.255886520825,0.257721569946,-0.600288212395,-0.559845939959,0.353080350803,0.448955288917
1403638150445097000,50,1403638150445097000,cam0,-0.383068903522,0.240811653272,0.253447418271,-0.603428834582,-0.562095078544,0.353677976064,0.441400785588
1403638150495097000,51,1403638150495097000,cam0,-0.395207386202,0.226033462728,0.249017499938,-0.60465357215,-0.564219206195,0.356024057041,0.435083458494
1403638150545097000,52,1403638150545097000,cam0,-0.413991716447,0.208188236803,0.25320958592,-0.604761585694,-0.567642936654,0.357043532963,0.429610098234
1403638150595097000,53,1403638150595097000,cam0,-0.429112835223,0.191893902237,0.250765011834,-0.604264473886,-0.570068694181,0.359051720924,0.425403327696
1403638150645097000,54,1403638150645097000,cam0,-0.458990923977,0.171440154756,0.257220852772,-0.603141911058,-0.572118858964,0.361280819925,0.422345848205
1403638150695097000,55,1403638150695097000,cam0,-0.483942179618,0.15019695187,0.264083206518,-0.601668175205,-0.57324261168,0.363614721516,0.420918815682
1403638150745097000,56,1403638150745097000,cam0,-0.51075209474,0.128301444622,0.276770609641,-0.599384705462,-0.575184830409,0.365551967509,0.419847763809
1403638150795097000,57,1403638150795097000,cam0,-0.539429124245,0.102403103153,0.286789718671,-0.596213565226,-0.577331862003,0.367655070731,0.419579616666
1403638150845097000,58,1403638150845097000,cam0,-0.572482035213,0.0816698173494,0.294090037457,-0.592015488349,-0.580021718088,0.370616598959,0.419208545567
1403638150895097000,59,1403638150895097000,cam0,-0.598705319573,0.0603519767868,0.303465150831,-0.587689992402,-0.582393266192,0.373581459138,0.419375070447
1403638150945097000,60,1403638150945097000,cam0,-0.627693995662,0.0374021304641,0.311331473504,-0.583578404693,-0.584073679946,0.376608366942,0.42007180329
1403638150995097000,61,1403638150995097000,cam0,-0.646505204063,0.0199194807381,0.318044797763,-0.578776958481,-0.585340047176,0.381136634895,0.420867113284
1403638151045097000,62,1403638151045097000,cam0,-0.670742519971,-0.000787525020391,0.320223838721,-0.574579734883,-0.588906027039,0.383586616007,0.419415220991
1403638151095097000,63,1403638151095097000,cam0,-0.697113565444,-0.0274907879292,0.324072205428,-0.56857884753,-0.592728942932,0.387270633035,0.418822099632
1403638151145097000,64,1403638151145097000,cam0,-0.718569679184,-0.0502224545376,0.327034722575,-0.561605504117,-0.597752261612,0.391164561105,0.417470690728
1403638151195097000,65,1403638151195097000,cam0,-0.740283424336,-0.0719813018148,0.322233556449,-0.554974426273,-0.603663441447,0.395471315318,0.4137587152
1403638151245097000,66,1403638151245097000,cam0,-0.76481629425,-0.0989043685643,0.322465890864,-0.548475132502,-0.610376843308,0.400061487852,0.408124912396
1403638151295097000,67,1403638151295097000,cam0,-0.79033167096,-0.129228036474,0.318479305639,-0.541641532282,-0.617125244795,0.404494766243,0.402696991328
1403638151345097000,68,1403638151345097000,cam0,-0.806184301054,-0.153053248817,0.313275698893,-0.534272798678,-0.624516093716,0.408688133201,0.396870552022
1403638151395097000,69,1403638151395097000,cam0,-0.825692559682,-0.17933752601,0.309825838589,-0.526791639448,-0.631102892383,0.414215526585,0.390672759952
1403638151445097000,70,1403638151445097000,cam0,-0.836611862672,-0.204114837015,0.307962561013,-0.519990499301,-0.637162336769,0.419990184364,0.383721620811
1403638151495097000,71,1403638151495097000,cam0,-0.858021982443,-0.231030355262,0.309886613669,-0.511961009225,-0.643701868926,0.424857244752,0.378206491954
1403638151545097000,72,1403638151545097000,cam0,-0.879285572724,-0.261911463459,0.310310391097,-0.505076466962,-0.649074097092,0.429582816058,0.372906399988
1403638151595097000,73,1403638151595097000,cam0,-0.900419560037,-0.290521413213,0.312491334036,-0.498922556445,-0.654180779894,0.433009543999,0.368275066619
1403638151645097000,74,1403638151645097000,cam0,-0.922871233657,-0.319187435991,0.315941331241,-0.493336536526,-0.657895652701,0.436848236892,0.364631306676
1403638151695097000,75,1403638151695097000,cam0,-0.935085364485,-0.345856373613,0.318355808065,-0.488615306289,-0.661252864383,0.439407033271,0.361830334435
1403638151745097000,76,1403638151745097000,cam0,-0.956273375115,-0.375461759327,0.326434874192,-0.484831095559,-0.664192770638,0.441105452988,0.359461752561
1403638151795097000,77,1403638151795097000,cam0,-0.981160330947,-0.411061732956,0.33646287377,-0.48122678604,-0.666679199988,0.441989114792,0.358615737393
1403638151845097000,78,1403638151845097000,cam0,-1.00968968459,-0.44839440552,0.347813437281,-0.47912156581,-0.668411275897,0.443053150884,0.356893257041
1403638151895097000,79,1403638151895097000,cam0,-1.03725223695,-0.484546557676,0.358577273991,-0.477804527986,-0.669655093946,0.443460786467,0.355819362955
1403638151945097000,80,1403638151945097000,cam0,-1.06256249504,-0.520759226119,0.376150103774,-0.476205934466,-0.671376765544,0.442671128593,0.355701305277
1403638151995097000,81,1403638151995097000,cam0,-1.08742244155,-0.553092031012,0.392694946436,-0.476088231988,-0.671747656646,0.443383532734,0.354268435023
1403638152045097000,82,1403638152045097000,cam0,-1.10803536449,-0.585190613347,0.40612590714,-0.476142598966,-0.672091962447,0.443302397776,0.353643328213
1403638152095097000,83,1403638152095097000,cam0,-1.13376387632,-0.61854612018,0.416363153505,-0.47582820158,-0.67247048406,0.44292247326,0.353822912387
1403638152145097000,84,1403638152145097000,cam0,-1.15626987634,-0.650667532737,0.421715342206,-0.475157192434,-0.672719748384,0.442702488711,0.354525442107
1403638152195097000,85,1403638152195097000,cam0,-1.17206910399,-0.68315805101,0.435296081921,-0.47559381518,-0.672642968766,0.442512880724,0.354322324903
1403638152245097000,86,1403638152245097000,cam0,-1.19822746296,-0.716596313365,0.439569900572,-0.474858133028,-0.672858382566,0.441931443951,0.355623325099
1403638152295097000,87,1403638152295097000,cam0,-1.22328320957,-0.756240230594,0.446352417607,-0.474408252421,-0.673068032248,0.441159456411,0.356783643149
1403638152345097000,88,1403638152345097000,cam0,-1.25354884796,-0.801109429267,0.452852305872,-0.473826573218,-0.673035903619,0.440213248008,0.358780360707
1403638152395097000,89,1403638152395097000,cam0,-1.28413918743,-0.846645176592,0.457871531799,-0.473631333671,-0.673531103122,0.438743779071,0.359907084146
1403638152445097000,90,1403638152445097000,cam0,-1.30766819153,-0.880567270895,0.456064665064,-0.473722863969,-0.673640264031,0.437648822319,0.360914049534
1403638152495097000,91,1403638152495097000,cam0,-1.32674563413,-0.915845239014,0.454238484434,-0.473827950619,-0.674180975666,0.435673849212,0.362153810383
1403638152545097000,92,1403638152545097000,cam0,-1.34261052612,-0.949346083824,0.451004594262,-0.473848654986,-0.673929218797,0.435754773607,0.362497775852
1403638152595097000,93,1403638152595097000,cam0,-1.35360975401,-0.98058758991,0.448212610945,-0.474887297021,-0.673743371564,0.435235978121,0.362107121927
1403638152645097000,94,1403638152645097000,cam0,-1.37644953193,-1.02236247007,0.441518476375,-0.476776380103,-0.673531457136,0.435528764681,0.359658664234
1403638152695097000,95,1403638152695097000,cam0,-1.39230749585,-1.06486841948,0.440411562625,-0.477685884573,-0.673655563278,0.436824765656,0.356634970037
1403638152745097000,96,1403638152745097000,cam0,-1.40978729527,-1.10165338263,0.436652044153,-0.476357224779,-0.674538084922,0.438503100924,0.354679005398
1403638152795097000,97,1403638152795097000,cam0,-1.43340883183,-1.14560632901,0.433719996588,-0.474696184909,-0.674730178209,0.442447633447,0.35162879618
1403638152845097000,98,1403638152845097000,cam0,-1.44885762682,-1.18214327412,0.436781072767,-0.471906437163,-0.675785872971,0.446327554844,0.348438634831
1403638152895097000,99,1403638152895097000,cam0,-1.46181614048,-1.22085783023,0.442630693934,-0.467791440859,-0.67624830202,0.451930425611,0.345858775053
1403638152945097000,100,1403638152945097000,cam0,-1.48764035834,-1.26433621904,0.451706966032,-0.463856761081,-0.677727861719,0.457039656659,0.341521013834
1403638152995097000,101,1403638152995097000,cam0,-1.51016024956,-1.3115758351,0.462182272997,-0.459017939902,-0.681133331285,0.459925755543,0.337384373152
1403638153045097000,102,1403638153045097000,cam0,-1.53316192138,-1.3558671545,0.47269747268,-0.454254687523,-0.685652262843,0.46168876476,0.33223054919
1403638153095097000,103,1403638153095097000,cam0,-1.54766718582,-1.39842367595,0.488105623313,-0.450836568778,-0.690125346955,0.462045116337,0.327089749474
1403638153145097000,104,1403638153145097000,cam0,-1.57533470671,-1.44194923936,0.498540287645,-0.447325550226,-0.694397597195,0.462149294573,0.322691584413
1403638153195097000,105,1403638153195097000,cam0,-1.60545047899,-1.48526049778,0.506384168343,-0.443858762323,-0.697694926671,0.462827921062,0.319376742879
1403638153245097000,106,1403638153245097000,cam0,-1.63385759802,-1.52685220133,0.514157004873,-0.440938072588,-0.700501918176,0.463130667819,0.316829075842
1403638153295097000,107,1403638153295097000,cam0,-1.6635495172,-1.57900381959,0.52457930291,-0.437125485903,-0.703392956159,0.463509254011,0.315148901704
1403638153345097000,108,1403638153345097000,cam0,-1.6954855334,-1.63042978766,0.529498914678,-0.433282987119,-0.706380403928,0.464789980627,0.311869927899
1403638153395097000,109,1403638153395097000,cam0,-1.72578384818,-1.67759863063,0.531640753132,-0.428349635293,-0.709664377916,0.466355854761,0.308877447203
1403638153445097000,110,1403638153445097000,cam0,-1.75503730849,-1.7226511416,0.535724553808,-0.422127496559,-0.71388128231,0.467057135385,0.306658643613
1403638153495097000,111,1403638153495097000,cam0,-1.77617673967,-1.77012241033,0.543760440997,-0.414354127339,-0.719074929968,0.466602366629,0.305817157309
1403638153545097000,112,1403638153545097000,cam0,-1.80273140958,-1.81711803812,0.548839483268,-0.406005978647,-0.724641401046,0.465962147999,0.304849572452
1403638153595097000,113,1403638153595097000,cam0,-1.8294968704,-1.87082513206,0.560550022606,-0.398230188057,-0.729592620706,0.466671781577,0.302199889826
1403638153645097000,114,1403638153645097000,cam0,-1.86061306455,-1.9311244057,0.574096143632,-0.389667404885,-0.734365341694,0.468175627618,0.299463587422
1403638153695097000,115,1403638153695097000,cam0,-1.88733518287,-1.98644241408,0.590828708177,-0.381941919207,-0.737920229723,0.47182789776,0.294911071024
1403638153745097000,116,1403638153745097000,cam0,-1.91641954857,-2.04685301787,0.603305490772,-0.375202462615,-0.740248412019,0.477024543437,0.2893146825
1403638153795097000,117,1403638153795097000,cam0,-1.94200885658,-2.10325024237,0.617544179291,-0.36852892648,-0.742987147407,0.480390056849,0.285275169645
1403638153845097000,118,1403638153845097000,cam0,-1.96976277096,-2.16234082455,0.625865839453,-0.362936955769,-0.744749082076,0.484296845542,0.28121546238
1403638153895097000,119,1403638153895097000,cam0,-1.99425316501,-2.21263163808,0.630194017533,-0.358067516254,-0.74555535358,0.488298559092,0.278387114896
1403638153945097000,120,1403638153945097000,cam0,-2.01716436958,-2.26780823162,0.635588527378,-0.354200060885,-0.745008575281,0.493363070604,0.275857608543
1403638153995097000,121,1403638153995097000,cam0,-2.03401140934,-2.31294245169,0.639806097366,-0.350849141224,-0.745268671601,0.496544102269,0.273721467433
1403638154045097000,122,1403638154045097000,cam0,-2.05101322771,-2.35843117022,0.64117807395,-0.349034351753,-0.744875591521,0.499545170038,0.271643143745
1403638154095097000,123,1403638154095097000,cam0,-2.07126784576,-2.4118824345,0.640861536511,-0.346568974265,-0.744581569685,0.501834299841,0.271386380764
1403638154145097000,124,1403638154145097000,cam0,-2.09382090052,-2.46473574611,0.63895393102,-0.344221459688,-0.743349630228,0.504831664013,0.272190934713
1403638154195097000,125,1403638154195097000,cam0,-2.11613767634,-2.52358607615,0.637287516564,-0.342346625849,-0.74196825607,0.507190812082,0.273933157709
1403638154245097000,126,1403638154245097000,cam0,-2.13567423173,-2.57569257451,0.638050604512,-0.340005867395,-0.740954188134,0.509221517143,0.275819411395
1403638154295097000,127,1403638154295097000,cam0,-2.14482899011,-2.62363913608,0.631624937438,-0.339338345549,-0.739995348456,0.510391152937,0.277050974562
1403638154345097000,128,1403638154345097000,cam0,-2.15832118993,-2.66749396123,0.627111171734,-0.338771878884,-0.737718298917,0.513498453742,0.278073126218
1403638154395097000,129,1403638154395097000,cam0,-2.16950050358,-2.71058338032,0.622455649693,-0.337127069379,-0.734781983375,0.517422335723,0.28056176235
1403638154445097000,130,1403638154445097000,cam0,-2.18851093775,-2.76225023176,0.615345783495,-0.336722067167,-0.732379748834,0.520558622501,0.281525973082
1403638154495097000,131,1403638154495097000,cam0,-2.19610893291,-2.80602791045,0.608391530269,-0.336524124952,-0.730588600524,0.522562918295,0.282700913568
1403638154545097000,132,1403638154545097000,cam0,-2.20809389672,-2.85276216849,0.60388605229,-0.33745896976,-0.730412924433,0.522607945982,0.281956270272
1403638154595097000,133,1403638154595097000,cam0,-2.21600042559,-2.89746877843,0.594567076408,-0.337763936237,-0.731222285962,0.52243057351,0.279813844817
1403638154645097000,134,1403638154645097000,cam0,-2.22234128599,-2.94315194687,0.59104855176,-0.337537798256,-0.733107131182,0.521542832573,0.276794585838
1403638154695097000,135,1403638154695097000,cam0,-2.21856037593,-2.98653478853,0.583693171052,-0.337476490453,-0.736780835575,0.518889839564,0.272060568839
1403638154745097000,136,1403638154745097000,cam0,-2.21623708083,-3.02282737338,0.582321529473,-0.334882504569,-0.740745379833,0.516373836311,0.269273191318
1403638154795097000,137,1403638154795097000,cam0,-2.21136348853,-3.05605422023,0.583179441558,-0.331621130137,-0.744353248325,0.514215340033,0.26748504973
1403638154845097000,138,1403638154845097000,cam0,-2.21238617832,-3.0904193053,0.58300469625,-0.327789560148,-0.747567741056,0.512432713424,0.266663066437
1403638154895097000,139,1403638154895097000,cam0,-2.21207437203,-3.13435539052,0.586782723523,-0.324251814181,-0.74989103537,0.511749515455,0.265775524651
1403638154945097000,140,1403638154945097000,cam0,-2.21771242917,-3.1791348061,0.591556993342,-0.319568471302,-0.752513408023,0.511124148385,0.265238888238
1403638154995097000,141,1403638154995097000,cam0,-2.21765727762,-3.23422247055,0.60146854966,-0.315159058819,-0.754095561675,0.512264794699,0.263817041941
1403638155045097000,142,1403638155045097000,cam0,-2.22413236468,-3.29082624424,0.611279107346,-0.309891528564,-0.75568056331,0.51424940892,0.261651814793
1403638155095097000,143,1403638155095097000,cam0,-2.23340444517,-3.3543434696,0.629257768231,-0.303890614087,-0.757514834851,0.516457811448,0.259023355402
1403638155145097000,144,1403638155145097000,cam0,-2.23419387578,-3.41053621619,0.641710226866,-0.29869713825,-0.758379078816,0.51962536996,0.256184830366
1403638155195097000,145,1403638155195097000,cam0,-2.23708012205,-3.46934550637,0.652707937496,-0.295199950711,-0.759155941443,0.522197456062,0.252683720398
1403638155245097000,146,1403638155245097000,cam0,-2.2332006212,-3.52218936382,0.66112020811,-0.291292694215,-0.758811880548,0.525850044087,0.250668760258
1403638155295097000,147,1403638155295097000,cam0,-2.22968176186,-3.57339577494,0.670005045085,-0.287557906467,-0.758507681999,0.528883655658,0.249516784113
1403638155345097000,148,1403638155345097000,cam0,-2.22483150744,-3.62861796939,0.676116098381,-0.283182750436,-0.758512183698,0.531375557975,0.249212386174
1403638155395097000,149,1403638155395097000,cam0,-2.21835861998,-3.68537532448,0.681638477681,-0.278032296597,-0.758748415131,0.534303629876,0.248029263767
1403638155445097000,150,1403638155445097000,cam0,-2.21300560231,-3.74316804468,0.685332187646,-0.272163431641,-0.759587591309,0.5364333832,0.247372154847
1403638155495097000,151,1403638155495097000,cam0,-2.2037726997,-3.79770747466,0.680380642982,-0.266547935959,-0.76145309955,0.537773918557,0.244827669066
1403638155545097000,152,1403638155545097000,cam0,-2.19867888675,-3.86257096591,0.680057273594,-0.262525441705,-0.762124785315,0.541536218117,0.238714743017
1403638155595097000,153,1403638155595097000,cam0,-2.18593421519,-3.91932477653,0.681082433399,-0.258164523262,-0.763040735643,0.545154892654,0.23221984776
1403638155645097000,154,1403638155645097000,cam0,-2.17200080016,-3.97349554484,0.679946599948,-0.253228168127,-0.763011879698,0.550731991097,0.224460776726
1403638155695097000,155,1403638155695097000,cam0,-2.15765347825,-4.02187809174,0.672467433861,-0.24671876967,-0.763265751396,0.55614751233,0.217382579724
1403638155745097000,156,1403638155745097000,cam0,-2.13235402227,-4.05707823999,0.669838360259,-0.240029466451,-0.764688255263,0.560026659328,0.209780524213
1403638155795097000,157,1403638155795097000,cam0,-2.11309221057,-4.10515456309,0.668829735605,-0.232814830834,-0.767492149264,0.562112555099,0.201946851328
1403638155845097000,158,1403638155845097000,cam0,-2.09247074122,-4.1479557352,0.658788558706,-0.225187262188,-0.770278514453,0.564456763814,0.193262176603
1403638155895097000,159,1403638155895097000,cam0,-2.07070026861,-4.19542280126,0.652374392015,-0.217081375211,-0.775084888529,0.564028668908,0.184365812341
1403638155945097000,160,1403638155945097000,cam0,-2.04759618258,-4.23668921953,0.643572828765,-0.208741814567,-0.781106046961,0.562065506986,0.174305949719
1403638155995097000,161,1403638155995097000,cam0,-2.02162502225,-4.27919457805,0.642252099385,-0.199767294794,-0.787515032781,0.559423107886,0.164191618047
1403638156045097000,162,1403638156045097000,cam0,-2.00299230068,-4.32228787891,0.636083991376,-0.190002420554,-0.794085627628,0.556354282874,0.154262789114
1403638156095097000,163,1403638156095097000,cam0,-1.97354579051,-4.35320829949,0.634308801342,-0.180467967587,-0.800155159183,0.553494839341,0.144313882664
1403638156145097000,164,1403638156145097000,cam0,-1.94616352639,-4.38806903304,0.64202131044,-0.172338390917,-0.803613489838,0.553395853544,0.135121675706
1403638156195097000,165,1403638156195097000,cam0,-1.92752328382,-4.4284609055,0.643059101356,-0.164527331662,-0.806478173625,0.553806550176,0.125785601661
1403638156245097000,166,1403638156245097000,cam0,-1.90757852358,-4.47363582822,0.64967659951,-0.155887943682,-0.809661397354,0.553311398135,0.118295677615
1403638156295097000,167,1403638156295097000,cam0,-1.88651293576,-4.5190451142,0.654312377475,-0.148188635501,-0.813573427448,0.55124447531,0.110760710083
1403638156345097000,168,1403638156345097000,cam0,-1.85989637397,-4.57098028099,0.662102245506,-0.141767966756,-0.816635986265,0.549634013457,0.104450757729
1403638156395097000,169,1403638156395097000,cam0,-1.84334904388,-4.627735071,0.667069341331,-0.1373138038,-0.818385719893,0.549263025398,0.0984878758535
1403638156445097000,170,1403638156445097000,cam0,-1.82327784803,-4.65927481261,0.670598962399,-0.132804219129,-0.820708142455,0.547679557035,0.0940653341824
1403638156495097000,171,1403638156495097000,cam0,-1.81879846464,-4.69936136284,0.667810977167,-0.128872110223,-0.82226330089,0.547001687035,0.0898008774784
1403638156545097000,172,1403638156545097000,cam0,-1.80116155902,-4.75324374832,0.667320445024,-0.126088886675,-0.82286196852,0.547139368975,0.0873972787752
1403638156595097000,173,1403638156595097000,cam0,-1.78783559008,-4.80508981811,0.665184205666,-0.124180650789,-0.82324546493,0.547311719882,0.085416343401
1403638156645097000,174,1403638156645097000,cam0,-1.76936575496,-4.8562625373,0.658486796728,-0.122783833654,-0.823596308249,0.547188587546,0.0848404437222
1403638156695097000,175,1403638156695097000,cam0,-1.75444555452,-4.91728487516,0.65443548414,-0.122201867964,-0.824041210761,0.546783738485,0.0839662418002
1403638156745097000,176,1403638156745097000,cam0,-1.73642136051,-4.97512760245,0.660993146471,-0.121496950378,-0.822749056608,0.548863937311,0.0840884012115
1403638156795097000,177,1403638156795097000,cam0,-1.72469275645,-5.03624367398,0.655739819354,-0.121746436619,-0.823030411655,0.54837167772,0.0841858048342
1403638156845097000,178,1403638156845097000,cam0,-1.7069933475,-5.09146101282,0.649399509891,-0.122399571328,-0.823221292239,0.547851787528,0.0847553411012
1403638156895097000,179,1403638156895097000,cam0,-1.69400074004,-5.15224677949,0.640048427038,-0.122893654309,-0.823161907418,0.547715518918,0.0854946445225
1403638156945097000,180,1403638156945097000,cam0,-1.68070973654,-5.21076234956,0.633442570712,-0.123719191614,-0.823489836811,0.546879513245,0.0864918972338
1403638156995097000,181,1403638156995097000,cam0,-1.67123399146,-5.2647555163,0.627505248423,-0.124734360103,-0.823346801805,0.546745180768,0.0872415650582
1403638157045097000,182,1403638157045097000,cam0,-1.66167876929,-5.31286595002,0.624901001267,-0.126109257186,-0.824077854988,0.545268856664,0.0876014732843
1403638157095097000,183,1403638157095097000,cam0,-1.65537120416,-5.36502486173,0.620354273668,-0.127388132118,-0.824768804645,0.543911837435,0.0876846382056
1403638157145097000,184,1403638157145097000,cam0,-1.64471250671,-5.41814051837,0.624214546201,-0.128947843769,-0.825933465268,0.541690163225,0.0881937163449
1403638157195097000,185,1403638157195097000,cam0,-1.6381517599,-5.47716953091,0.620914764871,-0.129935169089,-0.827140258964,0.539415937871,0.089366043912
1403638157245097000,186,1403638157245097000,cam0,-1.6315553037,-5.53159666065,0.626101844813,-0.131495841556,-0.827055028935,0.539272357081,0.0887363941934
1403638157295097000,187,1403638157295097000,cam0,-1.62477512401,-5.58019536393,0.6292894966,-0.130728522946,-0.826530873165,0.540190275337,0.0891697001461
1403638157345097000,188,1403638157345097000,cam0,-1.61688184932,-5.63519368635,0.638152854063,-0.128468334558,-0.826225084884,0.540977094808,0.0905084472129
1403638157395097000,189,1403638157395097000,cam0,-1.61265464818,-5.69330149439,0.641997353502,-0.125739839061,-0.825896022117,0.541815162515,0.0923124216541
1403638157445097000,190,1403638157445097000,cam0,-1.60720875462,-5.75242795732,0.649173410199,-0.122858862902,-0.825014917689,0.543436089143,0.0945161489549
1403638157495097000,191,1403638157495097000,cam0,-1.60438091442,-5.81653891786,0.650998314263,-0.119873881249,-0.823941175839,0.545733107131,0.0944805119158
1403638157545097000,192,1403638157545097000,cam0,-1.59858148799,-5.87902095486,0.657031839826,-0.116055580736,-0.822785426091,0.548446576228,0.0936034070724
1403638157595097000,193,1403638157595097000,cam0,-1.59307505428,-5.94303537559,0.660049669688,-0.110760870097,-0.821462472551,0.551771204794,0.0920867710624
1403638157645097000,194,1403638157645097000,cam0,-1.59076128468,-6.00553744158,0.658398255623,-0.103614875612,-0.819887885627,0.555703434155,0.0907827396746
1403638157695097000,195,1403638157695097000,cam0,-1.58989860628,-6.0631290904,0.649543833191,-0.0944323551755,-0.81854397931,0.559583901965,0.0890737946435
1403638157745097000,196,1403638157745097000,cam0,-1.58182070604,-6.13159697219,0.656123018103,-0.0853446044905,-0.818000332261,0.562341190966,0.0858145666429
1403638157795097000,197,1403638157795097000,cam0,-1.57262181078,-6.20758240458,0.664484713665,-0.076350414466,-0.818107269841,0.564185743642,0.0810281180472
1403638157845097000,198,1403638157845097000,cam0,-1.5687981846,-6.2766664352,0.66692666517,-0.067417277223,-0.818236209356,0.566067124807,0.0742457180016
1403638157895097000,199,1403638157895097000,cam0,-1.55850672428,-6.33424666799,0.68073996995,-0.0588255372937,-0.818299245398,0.567892085369,0.0665167686887
1403638157945097000,200,1403638157945097000,cam0,-1.55518272411,-6.3918834364,0.692793146904,-0.0507837738572,-0.81885519079,0.568715120243,0.0588242878004
1403638157995097000,201,1403638157995097000,cam0,-1.54086645445,-6.44984028829,0.70820946875,-0.043283914167,-0.819237585274,0.569307368372,0.0535294495076
1403638158045097000,202,1403638158045097000,cam0,-1.53236895244,-6.51133457045,0.717306990283,-0.0379186937234,-0.821178077353,0.567592360965,0.0454714164493
1403638158095097000,203,1403638158095097000,cam0,-1.51747131779,-6.61765825279,0.731876393089,-0.0339526417243,-0.821735472519,0.567616287851,0.0375470516638
1403638158145097000,204,1403638158145097000,cam0,-1.50714384599,-6.69165793065,0.737074269619,-0.0304903563487,-0.822025254542,0.567784551029,0.0310728607965
1403638158195097000,205,1403638158195097000,cam0,-1.49816098138,-6.75439888045,0.738543906402,-0.0285763465356,-0.822210381626,0.56793940367,0.0244604685892
1403638158245097000,206,1403638158245097000,cam0,-1.49432701662,-6.81637070774,0.738672626388,-0.0253860089179,-0.822202148001,0.568230964117,0.0212779179441
1403638158295097000,207,1403638158295097000,cam0,-1.48651493267,-6.87654184421,0.74308785437,-0.022387789331,-0.821972729281,0.568737498482,0.0199318094365
1403638158345097000,208,1403638158345097000,cam0,-1.48166813421,-6.92871984646,0.742914957874,-0.0195761636801,-0.822558929869,0.567989594839,0.0200349909505
1403638158395097000,209,1403638158395097000,cam0,-1.47590366086,-6.98281928923,0.744195029526,-0.017571354275,-0.822501491446,0.568123583754,0.0204484145944
1403638158445097000,210,1403638158445097000,cam0,-1.46049236414,-7.04029291963,0.735410964481,-0.0140269529912,-0.821906046612,0.568941666591,0.0240639803123
1403638158495097000,211,1403638158495097000,cam0,-1.4458390288,-7.11083901016,0.732160687338,-0.0117478721503,-0.821274087427,0.569799375742,0.0264486715185
1403638158545097000,212,1403638158545097000,cam0,-1.4386990341,-7.17781015216,0.731000955228,-0.00986966334579,-0.820637804616,0.570647641119,0.0285911361135
1403638158595097000,213,1403638158595097000,cam0,-1.43002661386,-7.24371467068,0.731210479701,-0.00930004098204,-0.820547216091,0.570700563225,0.0302761050483
1403638158645097000,214,1403638158645097000,cam0,-1.42478585891,-7.30069813288,0.727027349543,-0.00925339909794,-0.819766875492,0.571776315887,0.031120556557
1403638158695097000,215,1403638158695097000,cam0,-1.41695390792,-7.35391591111,0.725244131308,-0.011069427298,-0.819601783338,0.572033728022,0.0301296951912
1403638158745097000,216,1403638158745097000,cam0,-1.40654266893,-7.41369376555,0.720901331812,-0.013404938051,-0.81984403674,0.571716897967,0.0285631166944
1403638158795097000,217,1403638158795097000,cam0,-1.40621538771,-7.47134748652,0.723455305187,-0.0160549093693,-0.821408792478,0.569540791953,0.0255562482822
1403638158845097000,218,1403638158845097000,cam0,-1.4014066003,-7.52985594822,0.72235194165,-0.0190858131407,-0.823025852252,0.567214583235,0.02306067705
1403638158895097000,219,1403638158895097000,cam0,-1.39525171923,-7.59277306361,0.722072160765,-0.0210812166605,-0.824968382079,0.564385583573,0.0212523864219
1403638158945097000,220,1403638158945097000,cam0,-1.38644561528,-7.65156407251,0.721571262425,-0.0233253098085,-0.82609566546,0.562719377721,0.0192037331736
1403638158995097000,221,1403638158995097000,cam0,-1.37489022991,-7.71394806568,0.727527982405,-0.0246761718094,-0.828397398622,0.559268356208,0.0191766067118
1403638159045097000,222,1403638159045097000,cam0,-1.36874165924,-7.76925675549,0.733355665014,-0.0262095453879,-0.831455834184,0.554669620794,0.0183266827329
1403638159095097000,223,1403638159095097000,cam0,-1.36125401994,-7.82920368676,0.743011433193,-0.027004742312,-0.835032025084,0.549217855541,0.0187618797186
1403638159145097000,224,1403638159145097000,cam0,-1.35510348424,-7.88867778977,0.753203907793,-0.0284685982864,-0.83942680834,0.542435913097,0.0177609834728
1403638159195097000,225,1403638159195097000,cam0,-1.35201921896,-7.9501739263,0.760998967174,-0.0285546332213,-0.843499008146,0.53605735204,0.0183458851472
1403638159245097000,226,1403638159245097000,cam0,-1.34688933788,-8.01605662116,0.766445733544,-0.0282670582688,-0.844934198701,0.53378545936,0.0189804282672
1403638159295097000,227,1403638159295097000,cam0,-1.34572657752,-8.08144276039,0.775608139541,-0.0294025634405,-0.842438085168,0.537660880943,0.0188238950193
1403638159345097000,228,1403638159345097000,cam0,-1.34288382221,-8.14312104948,0.780635896681,-0.0310067542506,-0.837223083928,0.545699320453,0.0175596294214
1403638159395097000,229,1403638159395097000,cam0,-1.34358836806,-8.20604104133,0.78367515009,-0.0318980554956,-0.830779512086,0.555419168786,0.0172471243425
1403638159445097000,230,1403638159445097000,cam0,-1.34033702049,-8.26907606261,0.78750493943,-0.0332820181636,-0.823083501613,0.566697662261,0.0167217291602
1403638159495097000,231,1403638159495097000,cam0,-1.34160521478,-8.33232991262,0.794374850973,-0.0357059010131,-0.815597206265,0.577337287129,0.0144202169001
1403638159545097000,232,1403638159545097000,cam0,-1.335165086,-8.40565155729,0.802489177899,-0.0394340613145,-0.808532991419,0.587046157681,0.00980639320821
1403638159595097000,233,1403638159595097000,cam0,-1.32981996901,-8.47752476123,0.808210904119,-0.0444814954667,-0.803063610093,0.594221461724,0.0033300346657
1403638159645097000,234,1403638159645097000,cam0,-1.32977978395,-8.54651346449,0.81733444289,-0.0484317781529,-0.798911144049,0.599492287562,-0.00208421019543
1403638159695097000,235,1403638159695097000,cam0,-1.33272517069,-8.60466217682,0.82719985129,-0.0518764615107,-0.795496729441,0.603695892059,-0.00671238407661
1403638159745097000,236,1403638159745097000,cam0,-1.34896846903,-8.64294705721,0.839874840813,-0.0533429187499,-0.794229073581,0.605193236737,-0.00979070505794
1403638159795097000,237,1403638159795097000,cam0,-1.36294880294,-8.67831853844,0.852306387305,-0.0513515293057,-0.79267945018,0.60742515038,-0.00754959511199
1403638159845097000,238,1403638159845097000,cam0,-1.37977323172,-8.70793646174,0.869484088175,-0.0485696736967,-0.79208001829,0.608469436106,-0.00389573441544
1403638159895097000,239,1403638159895097000,cam0,-1.40202536032,-8.73229301296,0.891654659964,-0.0427888300889,-0.792936363666,0.607790475532,0.00343177032007
1403638159945097000,240,1403638159945097000,cam0,-1.41827152385,-8.75372317936,0.911080646795,-0.0375178586269,-0.793975089434,0.606691757806,0.011003574493
1403638159995097000,241,1403638159995097000,cam0,-1.43800926585,-8.77314590567,0.935227697027,-0.0334751904542,-0.794828292064,0.60570039156,0.0159509692903
1403638160045097000,242,1403638160045097000,cam0,-1.46042216686,-8.77438712478,0.957799142573,-0.0294438675013,-0.795548162906,0.604838043244,0.0201772299358
1403638160095097000,243,1403638160095097000,cam0,-1.48432303133,-8.77465731247,0.984649994958,-0.0274162268808,-0.797885316304,0.601788316861,0.0218676523487
1403638160145097000,244,1403638160145097000,cam0,-1.50501784221,-8.79178156246,1.01603311357,-0.0254858782247,-0.80107429795,0.597569515229,0.023261849532
1403638160195097000,245,1403638160195097000,cam0,-1.52498099898,-8.8197708709,1.04588746936,-0.0242286684142,-0.806843251729,0.589798830354,0.0235431195518
1403638160245097000,246,1403638160245097000,cam0,-1.53996526362,-8.85008700508,1.07998846333,-0.023142123267,-0.813025052118,0.581270515324,0.024068543244
1403638160295097000,247,1403638160295097000,cam0,-1.55811416101,-8.87852745544,1.11242191275,-0.0227036969501,-0.818302086906,0.573863350261,0.0233899965145
1403638160345097000,248,1403638160345097000,cam0,-1.57467406739,-8.9044376681,1.15015060451,-0.0215709759238,-0.822605281922,0.56768844215,0.0241883401597
1403638160395097000,249,1403638160395097000,cam0,-1.58946896027,-8.93514081066,1.18626563746,-0.0208567930933,-0.825645978518,0.563268954751,0.0245315501395
1403638160445097000,250,1403638160445097000,cam0,-1.61014698476,-8.96711071362,1.22562677314,-0.0209306579741,-0.827243050303,0.560955543331,0.0236584379741
1403638160495097000,251,1403638160495097000,cam0,-1.626091938,-8.99818919666,1.26116107879,-0.0210991873083,-0.828237119232,0.559479304563,0.0236855733836
1403638160545097000,252,1403638160545097000,cam0,-1.64215320071,-9.03554098521,1.29453136996,-0.0211792270648,-0.829002199828,0.558332321612,0.0239125837722
1403638160595097000,253,1403638160595097000,cam0,-1.66151552977,-9.06472436368,1.32765460395,-0.0212853905791,-0.829230162272,0.557998668717,0.0237013888856
1403638160645097000,254,1403638160645097000,cam0,-1.67944435129,-9.09435787407,1.36183043925,-0.0221401613787,-0.830025919764,0.556813614023,0.0229212785926
1403638160695097000,255,1403638160695097000,cam0,-1.69759093862,-9.12578402965,1.39097253528,-0.0217015646724,-0.829132421095,0.558134851403,0.0235363129895
1403638160745097000,256,1403638160745097000,cam0,-1.71868411327,-9.15577297741,1.42200315026,-0.0230749665912,-0.827281860184,0.560924480245,0.0208805456905
1403638160795097000,257,1403638160795097000,cam0,-1.73412949721,-9.19201617484,1.4514008733,-0.0261244092049,-0.824312285695,0.565229710874,0.0184971576219
1403638160845097000,258,1403638160845097000,cam0,-1.75226996952,-9.23026583943,1.47962412073,-0.0304460674999,-0.819542533169,0.571954881342,0.0170495456882
1403638160895097000,259,1403638160895097000,cam0,-1.76816563186,-9.2589619602,1.50630434061,-0.0371104664325,-0.814603789045,0.57859297291,0.0165424258628
1403638160945097000,260,1403638160945097000,cam0,-1.78850054955,-9.28639756024,1.53010816054,-0.0437765351056,-0.8098183076,0.584741094787,0.0188620178137
1403638160995097000,261,1403638160995097000,cam0,-1.80690465211,-9.31451065082,1.54906650262,-0.0505103755508,-0.806411060899,0.588727868683,0.023439271665
1403638161045097000,262,1403638161045097000,cam0,-1.82651378153,-9.33790289708,1.57342154107,-0.0578869579103,-0.803952370644,0.591176147031,0.0286434813108
1403638161095097000,263,1403638161095097000,cam0,-1.8466953852,-9.37257639592,1.5969032066,-0.0661172247277,-0.802412122916,0.592114707602,0.0341096853299
1403638161145097000,264,1403638161145097000,cam0,-1.87154511154,-9.41500436107,1.61287830066,-0.0741188531689,-0.802664977596,0.590338660442,0.0416604768575
1403638161195097000,265,1403638161195097000,cam0,-1.89337524311,-9.44255899937,1.63784508721,-0.0830898118447,-0.803040878167,0.587979795018,0.0500119166786
1403638161245097000,266,1403638161245097000,cam0,-1.92119044647,-9.47456592062,1.6614328012,-0.092633982935,-0.803767961373,0.584764574769,0.0585354727561
1403638161295097000,267,1403638161295097000,cam0,-1.9496010461,-9.50570309314,1.68350732442,-0.103479007106,-0.803544304373,0.582352907406,0.0668860017779
1403638161345097000,268,1403638161345097000,cam0,-1.97640841737,-9.53442489694,1.70669691969,-0.114054073816,-0.804042901435,0.57863575994,0.075414443021
1403638161395097000,269,1403638161395097000,cam0,-2.00163427862,-9.55459678731,1.72125492825,-0.123549906975,-0.80562691619,0.573517271199,0.0823324482383
1403638161445097000,270,1403638161445097000,cam0,-2.02348638249,-9.5770496976,1.73937235281,-0.131886651674,-0.807721561392,0.567726493214,0.0887604600813
1403638161495097000,271,1403638161495097000,cam0,-2.04505626856,-9.59456453643,1.75268619241,-0.138323595245,-0.810390703017,0.561397654285,0.0946898369674
1403638161545097000,272,1403638161545097000,cam0,-2.07125126519,-9.61103492278,1.76937567776,-0.143917925045,-0.811742178202,0.557259410867,0.0991171830629
1403638161595097000,273,1403638161595097000,cam0,-2.09621016305,-9.62587123192,1.78077856667,-0.149419552764,-0.811962293349,0.554910416182,0.102300837941
1403638161645097000,274,1403638161645097000,cam0,-2.12204097664,-9.64236127608,1.79648541568,-0.1544882646,-0.812341105553,0.552614895323,0.104173325741
1403638161695097000,275,1403638161695097000,cam0,-2.15073800894,-9.6574263331,1.80895328044,-0.159400170924,-0.811942808304,0.551794350232,0.104227907034
1403638161745097000,276,1403638161745097000,cam0,-2.17946028984,-9.67172099182,1.82470897568,-0.163151202311,-0.81070143922,0.552537280956,0.104150923107
1403638161795097000,277,1403638161795097000,cam0,-2.21048232512,-9.69503999917,1.8379683572,-0.16647307461,-0.809058911337,0.553780056293,0.105062089582
1403638161845097000,278,1403638161845097000,cam0,-2.2440625699,-9.72102107903,1.84701231897,-0.169003775982,-0.806529692835,0.556126471316,0.108032060888
1403638161895097000,279,1403638161895097000,cam0,-2.2728992002,-9.74154232679,1.85618320594,-0.17275639607,-0.803572670907,0.558646953829,0.111084522621
1403638161945097000,280,1403638161945097000,cam0,-2.30907186804,-9.76288555732,1.86609976393,-0.17640606024,-0.801650650918,0.559508596126,0.114835824787
1403638161995097000,281,1403638161995097000,cam0,-2.34136985854,-9.80390093938,1.88175064172,-0.180596834423,-0.800677170956,0.559069878076,0.1172250943
1403638162045097000,282,1403638162045097000,cam0,-2.3760529928,-9.8351785877,1.8942100202,-0.18384452808,-0.799527079364,0.559222197091,0.119281906167
1403638162095097000,283,1403638162095097000,cam0,-2.41180107557,-9.86295961141,1.91017412545,-0.186576042495,-0.799171377347,0.558492601778,0.120832544266
1403638162145097000,284,1403638162145097000,cam0,-2.44438818175,-9.89502074947,1.92518674032,-0.189676624678,-0.799560165651,0.556855818514,0.120987259419
1403638162195097000,285,1403638162195097000,cam0,-2.47895983394,-9.92492003674,1.94216310965,-0.1930523143,-0.80013943621,0.555097183199,0.119894969744
1403638162245097000,286,1403638162245097000,cam0,-2.51574294351,-9.94816228015,1.95662124535,-0.195510808722,-0.800704322656,0.553540814241,0.119334313262
1403638162295097000,287,1403638162295097000,cam0,-2.55296955047,-9.97791708829,1.97139286882,-0.197769508677,-0.801068115817,0.552343543267,0.118716913157
1403638162345097000,288,1403638162345097000,cam0,-2.58857701231,-10.0038967284,1.98449400485,-0.200400792403,-0.800608112131,0.552437223477,0.116958485418
1403638162395097000,289,1403638162395097000,cam0,-2.62334688788,-10.0299823577,1.99490298524,-0.202260242899,-0.799476658559,0.553584726527,0.116068157209
1403638162445097000,290,1403638162445097000,cam0,-2.6655140353,-10.0500926314,2.00401719222,-0.202927591659,-0.798203785272,0.555208760173,0.115906610458
1403638162495097000,291,1403638162495097000,cam0,-2.70530345514,-10.0694105643,2.01606309379,-0.202540893111,-0.797428274051,0.556195624389,0.117182600123
1403638162545097000,292,1403638162545097000,cam0,-2.74005672689,-10.0893633869,2.03512168392,-0.202194358924,-0.796521517051,0.5572438667,0.118954559052
1403638162595097000,293,1403638162595097000,cam0,-2.7843078217,-10.1078137646,2.04407325719,-0.200225964029,-0.797204135277,0.556451391185,0.121395960695
1403638162645097000,294,1403638162645097000,cam0,-2.82836156647,-10.1257914481,2.05410498631,-0.197997145908,-0.797430365005,0.556383237302,0.123853285903
1403638162695097000,295,1403638162695097000,cam0,-2.87260324481,-10.1363464794,2.07043474635,-0.195560849578,-0.798614036373,0.555041508227,0.126097181434
1403638162745097000,296,1403638162745097000,cam0,-2.91677269711,-10.1471973519,2.08540967671,-0.19385703447,-0.799793344275,0.553608726667,0.127543852839
1403638162795097000,297,1403638162795097000,cam0,-2.96179957264,-10.1551070696,2.10226386784,-0.195917228579,-0.800272072192,0.552540118289,0.126017727705
1403638162845097000,298,1403638162845097000,cam0,-3.00917399366,-10.1697286058,2.12280685871,-0.198203957884,-0.800262904086,0.551722853472,0.126080800989
1403638162895097000,299,1403638162895097000,cam0,-3.05722099103,-10.1866282128,2.14727958907,-0.202346934768,-0.798210081932,0.553378203565,0.125255526466
1403638162945097000,300,1403638162945097000,cam0,-3.10535830075,-10.2042418081,2.17725717209,-0.206612145645,-0.795629455218,0.555817425196,0.123903918861
1403638162995097000,301,1403638162995097000,cam0,-3.15550788378,-10.2185424605,2.20279174527,-0.208411291364,-0.791521258734,0.560527445848,0.125967507929
1403638163045097000,302,1403638163045097000,cam0,-3.20873049773,-10.2345293495,2.22857248358,-0.210328440502,-0.787316328652,0.565357006058,0.127539803408
1403638163095097000,303,1403638163095097000,cam0,-3.2639734902,-10.2516072276,2.2495460984,-0.213400634506,-0.783660329332,0.568944868111,0.12898990066
1403638163145097000,304,1403638163145097000,cam0,-3.31350458351,-10.2623901013,2.26416993728,-0.216952167039,-0.782064145174,0.569067618402,0.132172144328
1403638163195097000,305,1403638163195097000,cam0,-3.36883171072,-10.2692276024,2.27218449939,-0.220277388496,-0.78155878382,0.567482001568,0.13641084065
1403638163245097000,306,1403638163245097000,cam0,-3.42250405869,-10.2831916207,2.28987236747,-0.2238498697,-0.780475378512,0.566028684771,0.142691791592
1403638163295097000,307,1403638163295097000,cam0,-3.48098657015,-10.2973203493,2.29328848233,-0.228053504365,-0.779980048478,0.563353383327,0.14918340597
1403638163345097000,308,1403638163345097000,cam0,-3.53340625489,-10.3132796225,2.30131859381,-0.233124319229,-0.778890089299,0.560749400864,0.156663301401
1403638163395097000,309,1403638163395097000,cam0,-3.59286829312,-10.3286245062,2.30778433417,-0.238332568284,-0.777394102488,0.558483721419,0.164170427366
1403638163445097000,310,1403638163445097000,cam0,-3.64910058411,-10.3401218788,2.31124226625,-0.24464144785,-0.775142193023,0.556955276702,0.170604696132
1403638163495097000,311,1403638163495097000,cam0,-3.70547049275,-10.3466417721,2.31403941975,-0.250543153382,-0.774040675944,0.554394792706,0.175315641336
1403638163545097000,312,1403638163545097000,cam0,-3.76175252107,-10.3551069055,2.31708869338,-0.255384617423,-0.771809258963,0.553834558254,0.179878978888
1403638163595097000,313,1403638163595097000,cam0,-3.81656880276,-10.3641334061,2.32407938786,-0.260051291223,-0.771397575584,0.551491603803,0.182143122982
1403638163645097000,314,1403638163645097000,cam0,-3.87288081364,-10.3670758095,2.33427598282,-0.262822893294,-0.770684315675,0.550161327816,0.185181871974
1403638163695097000,315,1403638163695097000,cam0,-3.92683705806,-10.3720659825,2.34681398975,-0.265099941472,-0.76985802462,0.549294953199,0.18792471192
1403638163745097000,316,1403638163745097000,cam0,-3.98607682372,-10.3724285971,2.36237373807,-0.26704476442,-0.769629539575,0.548292439507,0.189031389954
1403638163795097000,317,1403638163795097000,cam0,-4.0346203337,-10.3711237226,2.37268752541,-0.267528085996,-0.768772148176,0.548455155931,0.191350592692
1403638163845097000,318,1403638163845097000,cam0,-4.09074089133,-10.3759303957,2.39267641272,-0.269518810093,-0.767868806679,0.548940650085,0.190791167035
1403638163895097000,319,1403638163895097000,cam0,-4.14716082549,-10.3785384651,2.41216765061,-0.270594543248,-0.766934128743,0.549836533215,0.190447951091
1403638163945097000,320,1403638163945097000,cam0,-4.20267067139,-10.3820029145,2.43250775459,-0.271913146384,-0.767378909341,0.549077296752,0.188962886604
1403638163995097000,321,1403638163995097000,cam0,-4.25667183829,-10.3834583995,2.45488782982,-0.274261775195,-0.766822049138,0.549847586177,0.185558765885
1403638164045097000,322,1403638164045097000,cam0,-4.30614320318,-10.3805878024,2.47621757363,-0.275570557252,-0.767178818424,0.549505330457,0.183143168959
1403638164095097000,323,1403638164095097000,cam0,-4.35661579913,-10.3752696367,2.49838556315,-0.276522696593,-0.766713040923,0.55046903472,0.18074886711
1403638164145097000,324,1403638164145097000,cam0,-4.40304159958,-10.3674968181,2.52211173199,-0.277249302248,-0.765945497284,0.551743200464,0.178996537213
1403638164195097000,325,1403638164195097000,cam0,-4.45184346542,-10.3587452661,2.5474836922,-0.278117566361,-0.765149481456,0.553224513454,0.176463956721
1403638164245097000,326,1403638164245097000,cam0,-4.49991150564,-10.3622180685,2.57075282021,-0.277472928533,-0.764198675983,0.554737869744,0.176847542896
1403638164295097000,327,1403638164295097000,cam0,-4.5549985838,-10.3569807035,2.59403229625,-0.277452251876,-0.763052421828,0.556826794727,0.175257439628
1403638164345097000,328,1403638164345097000,cam0,-4.60737430482,-10.3456686346,2.61530710872,-0.276936711406,-0.762189362074,0.558478336959,0.174571994784
1403638164395097000,329,1403638164395097000,cam0,-4.66414987144,-10.3367382849,2.63428557816,-0.276269789459,-0.761894265878,0.559445177481,0.173819516878
1403638164445097000,330,1403638164445097000,cam0,-4.71912907429,-10.3259357421,2.65260603616,-0.274942599395,-0.761835955684,0.560202752441,0.173739517156
1403638164495097000,331,1403638164495097000,cam0,-4.77308126947,-10.3139503325,2.67039281354,-0.275683847185,-0.762032630823,0.56020036232,0.171698107205
1403638164545097000,332,1403638164545097000,cam0,-4.82672818455,-10.3010877182,2.68488266438,-0.276291033854,-0.76148145597,0.561133987859,0.170111447278
1403638164595097000,333,1403638164595097000,cam0,-4.87995614731,-10.2878428306,2.70057995601,-0.2773896498,-0.761327455282,0.56126882412,0.168560953629
1403638164645097000,334,1403638164645097000,cam0,-4.93630155945,-10.2736957974,2.7121274304,-0.279369277023,-0.760773650274,0.561112135818,0.168313490668
1403638164695097000,335,1403638164695097000,cam0,-4.99368528515,-10.2518208441,2.7259718348,-0.280855121342,-0.76049083089,0.559937031396,0.171010578093
1403638164745097000,336,1403638164745097000,cam0,-5.04717850519,-10.2315782216,2.73386932402,-0.281907323434,-0.759137005735,0.55970816042,0.175971709877
1403638164795097000,337,1403638164795097000,cam0,-5.1050115836,-10.2097116134,2.74211610279,-0.279750439088,-0.758422992644,0.558981607735,0.184590948513
1403638164845097000,338,1403638164845097000,cam0,-5.16209745173,-10.1899761043,2.74762601097,-0.277132427034,-0.756949035313,0.558855211604,0.194696246207
1403638164895097000,339,1403638164895097000,cam0,-5.21483703494,-10.164686609,2.75315995864,-0.274521672932,-0.755839366495,0.558394697119,0.203813800747
1403638164945097000,340,1403638164945097000,cam0,-5.26287992152,-10.1394836514,2.76279111472,-0.273679717787,-0.754980599881,0.557792408289,0.209693431299
1403638164995097000,341,1403638164995097000,cam0,-5.31783650487,-10.1084664271,2.77101368755,-0.275216204549,-0.752109746629,0.560415251775,0.211001695152
1403638165045097000,342,1403638165045097000,cam0,-5.37198542391,-10.0871871089,2.77634724827,-0.280170915402,-0.747337855906,0.564619620447,0.210226238842
1403638165095097000,343,1403638165095097000,cam0,-5.43113917412,-10.0627408541,2.78225519609,-0.286325999591,-0.744157789494,0.56646250257,0.208247063544
1403638165145097000,344,1403638165145097000,cam0,-5.48968566931,-10.0282209391,2.78668963294,-0.292850339108,-0.742470776697,0.5659289644,0.206640344289
1403638165195097000,345,1403638165195097000,cam0,-5.54686654671,-10.0006482746,2.78679161208,-0.297282181333,-0.743886879423,0.561843549863,0.206367247307
1403638165245097000,346,1403638165245097000,cam0,-5.59225391726,-9.96313563985,2.78662332738,-0.301429654795,-0.747435633086,0.555181812924,0.205556056104
1403638165295097000,347,1403638165295097000,cam0,-5.63497150792,-9.92838625641,2.78200438845,-0.306868520311,-0.750769417617,0.548562395651,0.203116446625
1403638165345097000,348,1403638165345097000,cam0,-5.676969784,-9.89292801598,2.77649215027,-0.312263858851,-0.751362327134,0.545240349001,0.201640515868
1403638165395097000,349,1403638165395097000,cam0,-5.72628104477,-9.86069661363,2.77405902317,-0.316320409222,-0.751106778592,0.543912911105,0.199846818826
1403638165445097000,350,1403638165445097000,cam0,-5.77756671971,-9.82597853596,2.7654413494,-0.317464633112,-0.75030538864,0.543841238901,0.201233042444
1403638165495097000,351,1403638165495097000,cam0,-5.81492173187,-9.79565514134,2.75145949982,-0.317246542356,-0.746985041762,0.546684978205,0.206163802231
1403638165545097000,352,1403638165545097000,cam0,-5.85103789575,-9.75373249467,2.74396178955,-0.31579955951,-0.743295896634,0.550503791384,0.211488590545
1403638165595097000,353,1403638165595097000,cam0,-5.89585669164,-9.71422258375,2.73230619574,-0.313832003177,-0.738860093234,0.555697094765,0.216323774185
1403638165645097000,354,1403638165645097000,cam0,-5.9327729339,-9.6771698789,2.72086635167,-0.31053846591,-0.734786701528,0.559940802683,0.223876443464
1403638165695097000,355,1403638165695097000,cam0,-5.97351162566,-9.63906179863,2.7107883464,-0.30892706446,-0.731142673155,0.563785806459,0.22834190323
1403638165745097000,356,1403638165745097000,cam0,-6.02160834872,-9.59873875003,2.69831404066,-0.306016470846,-0.72942348405,0.565537470931,0.233372383667
1403638165795097000,357,1403638165795097000,cam0,-6.06800280072,-9.55995464999,2.6819849201,-0.305439400346,-0.729991865799,0.564277310085,0.235392790686
1403638165845097000,358,1403638165845097000,cam0,-6.1214992933,-9.51272069257,2.66876143774,-0.305453455012,-0.733891502577,0.559648721621,0.234296303117
1403638165895097000,359,1403638165895097000,cam0,-6.16811760973,-9.46452727689,2.65493196225,-0.306195545887,-0.73773473606,0.554989547416,0.232332410885
1403638165945097000,360,1403638165945097000,cam0,-6.2086883273,-9.41821529153,2.64381852269,-0.306296184649,-0.741472258493,0.550395780829,0.231227207742
1403638165995097000,361,1403638165995097000,cam0,-6.25386661571,-9.37552672728,2.63276678951,-0.307200161742,-0.745600730024,0.545359066612,0.228672474243
1403638166045097000,362,1403638166045097000,cam0,-6.30258206402,-9.32533394828,2.62966317072,-0.308506252818,-0.749504560022,0.540426987224,0.225843923891
1403638166095097000,363,1403638166095097000,cam0,-6.34028960679,-9.28336115652,2.62984615019,-0.308360374061,-0.75272306977,0.535255576087,0.227647376907
1403638166145097000,364,1403638166145097000,cam0,-6.3903040526,-9.23571484588,2.62667477842,-0.306392874849,-0.755387585023,0.532228606853,0.228573210772
1403638166195097000,365,1403638166195097000,cam0,-6.4982598379,-9.18042780121,2.65004355951,-0.304897045323,-0.757908696278,0.529722482214,0.228048880058
1403638166245097000,366,1403638166245097000,cam0,-6.55587500474,-9.13403774367,2.69693462981,-0.30149385197,-0.759681155264,0.528148814116,0.230314631989
1403638166295097000,367,1403638166295097000,cam0,-6.61407518195,-9.08482766119,2.71371834511,-0.299199644149,-0.760638285523,0.528071757062,0.230324099759
1403638166345097000,368,1403638166345097000,cam0,-6.65126051726,-9.03947535608,2.72908076509,-0.297403756635,-0.761769440631,0.527248519919,0.230797147085
1403638166395097000,369,1403638166395097000,cam0,-6.67895848643,-8.99517700049,2.75397305576,-0.296002350684,-0.762218629508,0.526910150484,0.231885882571
1403638166445097000,370,1403638166445097000,cam0,-6.68098633824,-8.95817212255,2.77330197339,-0.295406926926,-0.763257111958,0.525750849481,0.231860675491
1403638166495097000,371,1403638166495097000,cam0,-6.70022016146,-8.91503256146,2.78932304117,-0.294438043844,-0.7632959607,0.526175424446,0.232002020303
1403638166545097000,372,1403638166545097000,cam0,-6.72212004479,-8.87489569349,2.81145779192,-0.294365782733,-0.763239433229,0.526955948493,0.230503322898
1403638166595097000,373,1403638166595097000,cam0,-6.7584005613,-8.83583332163,2.83306098233,-0.293256128658,-0.763157119214,0.52767918693,0.23053574577
1403638166645097000,374,1403638166645097000,cam0,-6.78982665008,-8.79507076264,2.85320005462,-0.293312696488,-0.76347826284,0.5279229904,0.228836012147
1403638166695097000,375,1403638166695097000,cam0,-6.79427762637,-8.76264190173,2.85577904802,-0.29554574229,-0.763285017302,0.528380231331,0.225528330183
1403638166745097000,376,1403638166745097000,cam0,-6.82589797716,-8.72519526313,2.8736884877,-0.297592253134,-0.763195179115,0.528871534632,0.221961414004
1403638166795097000,377,1403638166795097000,cam0,-6.85592328712,-8.685988198,2.88919177303,-0.30192454815,-0.763701467283,0.528647171687,0.214787811482
1403638166845097000,378,1403638166845097000,cam0,-6.88621512241,-8.65218273171,2.89714257977,-0.30658016753,-0.765490940349,0.52647989423,0.207005174073
1403638166895097000,379,1403638166895097000,cam0,-6.91593658143,-8.61564392069,2.90574381965,-0.311669883533,-0.768738397614,0.522029102423,0.198466057439
1403638166945097000,380,1403638166945097000,cam0,-6.952603286,-8.57834675538,2.91523097222,-0.315708254404,-0.771754059598,0.517118122047,0.193165259416
1403638166995097000,381,1403638166995097000,cam0,-6.97466198384,-8.54545748429,2.92255942401,-0.317858932484,-0.775166094843,0.51170308833,0.190376400425
1403638167045097000,382,1403638167045097000,cam0,-6.99477413021,-8.5184660286,2.92791579727,-0.318128598338,-0.777945088424,0.507310436476,0.190346408839
1403638167095097000,383,1403638167095097000,cam0,-7.02370137668,-8.4868192053,2.93243415698,-0.317487895726,-0.77994487123,0.504485390138,0.190740465153
